{
  "airports": [
    {
      "code": "ABC",
      "lat": "38.9833",
      "lon": "-1.85",
      "name": "Los Llanos",
      "city": "Albacete",
      "state": "Castilla-la Mancha",
      "country": "Spain",
      "tz": "Europe/Madrid"
    },
    {
      "code": "ABZ",
      "lat": "57.2004",
      "lon": "-2.20373",
      "name": "Aberdeen Dyce International Airport",
      "city": "Aberdeen",
      "state": "Scotland",
      "country": "United Kingdom",
      "woeid": "22450858",
      "tz": "Europe/London"
    },
    {
      "code": "ACH",
      "lat": "47.4887",
      "lon": "9.55376",
      "name": "Altenrhein Airport",
      "city": "Altenrhein",
      "state": "Canton of St. Gallen",
      "country": "Switzerland",
      "woeid": "23344872",
      "tz": "Europe/Zurich"
    },
    {
      "code": "ADA",
      "lat": "36.9811",
      "lon": "35.2803",
      "name": "Sakirpasa Airport",
      "city": "Adana",
      "state": "Adana",
      "country": "Turkey",
      "woeid": "12517911",
      "tz": "Europe/Istanbul"
    },
    {
      "code": "ADB",
      "lat": "38.32",
      "lon": "27.1603",
      "name": "Gaziemir Airport",
      "city": "Izmir",
      "state": "Izmir",
      "country": "Turkey",
      "woeid": "12517893",
      "tz": "Europe/Istanbul"
    },
    {
      "code": "ADF",
      "lat": "37.8099",
      "lon": "38.3357",
      "name": "Adiyaman Airport",
      "city": "Adiyaman",
      "state": "Adiyaman",
      "country": "Turkey",
      "woeid": "2347259",
      "tz": "Europe/Istanbul"
    },
    {
      "code": "ADX",
      "lat": "56.377",
      "lon": "-2.86117",
      "name": "Leuchars Airport",
      "city": "St. Andrews",
      "state": "Scotland",
      "country": "United Kingdom",
      "woeid": "12518118",
      "tz": "Europe/London"
    },
    {
      "code": "AGH",
      "lat": "56.2873",
      "lon": "12.8675",
      "name": "Angelholm Airport",
      "city": "Angelholm",
      "state": "Skane",
      "country": "Sweden",
      "woeid": "23319131",
      "tz": "Europe/Stockholm"
    },
    {
      "code": "AGP",
      "lat": "36.6749",
      "lon": "-4.49298",
      "name": "Malaga Airport",
      "city": "Malaga",
      "state": "Andalucia",
      "country": "Spain",
      "woeid": "23232917",
      "tz": "Europe/Madrid"
    },
    {
      "code": "AHO",
      "lat": "40.6319",
      "lon": "8.29279",
      "name": "Alghero Airport",
      "city": "Alghero",
      "state": "Sardinia",
      "country": "Italy",
      "woeid": "12513798",
      "tz": "Europe/Rome"
    },
    {
      "code": "AJA",
      "lat": "41.9204",
      "lon": "8.79778",
      "name": "Campo Dell Oro Airport",
      "city": "Ajaccio",
      "state": "Corsica",
      "country": "France",
      "woeid": "12512869",
      "tz": "Europe/Paris"
    },
    {
      "code": "AJR",
      "lat": "65.592",
      "lon": "19.2647",
      "name": "Arvidsjaur Airport",
      "city": "Arvidsjaur",
      "state": "Norrbotten",
      "country": "Sweden",
      "woeid": "22656498",
      "tz": "Europe/Stockholm"
    },
    {
      "code": "ALC",
      "lat": "38.2844",
      "lon": "-0.5576",
      "name": "Alicante Airport",
      "city": "Elx",
      "state": "Valencia",
      "country": "Spain",
      "woeid": "22412043",
      "tz": "Europe/Madrid"
    },
    {
      "code": "ALF",
      "lat": "69.9793",
      "lon": "23.3571",
      "name": "Alta Airport",
      "city": "Alta",
      "state": "Finnmark Fylke",
      "country": "Norway",
      "woeid": "12515099",
      "tz": "Europe/Oslo"
    },
    {
      "code": "AMS",
      "lat": "52.3122",
      "lon": "4.77511",
      "name": "Schiphol Airport",
      "city": "Schiphol Zuid",
      "state": "North Holland",
      "country": "Netherlands",
      "woeid": "22386730",
      "tz": "Europe/Amsterdam"
    },
    {
      "code": "ANR",
      "lat": "51.1896",
      "lon": "4.45236",
      "name": "Deurne Airport",
      "city": "Antwerp",
      "state": "Antwerp",
      "country": "Belgium",
      "woeid": "22028955",
      "tz": "Europe/Brussels"
    },
    {
      "code": "ANX",
      "lat": "69.3088",
      "lon": "16.1236",
      "name": "Andoya Airport",
      "city": "Andenes",
      "state": "Nordland Fylke",
      "country": "Norway",
      "woeid": "12515100",
      "tz": "Europe/Oslo"
    },
    {
      "code": "AOC",
      "lat": "50.9794",
      "lon": "12.5111",
      "name": "Altenburg Nobitz",
      "city": "Altenburg",
      "state": "Thuringia",
      "country": "Germany",
      "woeid": "12597007",
      "tz": "Europe/Berlin"
    },
    {
      "code": "AOE",
      "lat": "39.7905",
      "lon": "30.5172",
      "name": "Anadolu University Airport",
      "city": "Eskisehir",
      "state": "Eskisehir",
      "country": "Turkey",
      "woeid": "12523341",
      "tz": "Europe/Istanbul"
    },
    {
      "code": "AOI",
      "lat": "43.6158",
      "lon": "13.3634",
      "name": "Falconara Airport",
      "city": "Falconara Marittima",
      "state": "Marche",
      "country": "Italy",
      "woeid": "12513819",
      "tz": "Europe/Rome"
    },
    {
      "code": "ARH",
      "lat": "64.4465",
      "lon": "40.4242",
      "name": "Arkhangelsk Airport",
      "city": "Arkhangelsk",
      "state": "Arkhangelrskaya Oblast",
      "country": "Russia",
      "woeid": "12515724",
      "tz": "Europe/Moscow"
    },
    {
      "code": "ASR",
      "lat": "38.7708",
      "lon": "35.4939",
      "name": "Erkilet Airport",
      "city": "Kayseri",
      "state": "Kayseri",
      "country": "Turkey",
      "woeid": "12517886",
      "tz": "Europe/Istanbul"
    },
    {
      "code": "ATH",
      "lat": "37.8937",
      "lon": "23.7235",
      "name": "Eleftherios Venizelos International Airport",
      "city": "Athens",
      "state": "Attiki",
      "country": "Greece",
      "woeid": "12513286",
      "tz": "Europe/Athens"
    },
    {
      "code": "AVN",
      "lat": "43.9056",
      "lon": "4.89951",
      "name": "Avignon-Caumont Airport",
      "city": "Avignon",
      "state": "Provence-alpes-cote d'Azur",
      "country": "France",
      "woeid": "12523803",
      "tz": "Europe/Paris"
    },
    {
      "code": "AXD",
      "lat": "40.8567",
      "lon": "25.9567",
      "name": "Alexandroupolis Airport",
      "city": "Alexandroupolis",
      "state": "Anatoliki Makedonia",
      "country": "Greece",
      "woeid": "12513282",
      "tz": "Europe/Athens"
    },
    {
      "code": "AYT",
      "lat": "36.9022",
      "lon": "30.7917",
      "name": "Antalya Airport",
      "city": "Antalya",
      "state": "Antalya",
      "country": "Turkey",
      "woeid": "12517869",
      "tz": "Europe/Istanbul"
    },
    {
      "code": "BBS",
      "lat": "51.3252",
      "lon": "-0.84173",
      "name": "Blackbushe Airport",
      "city": "Camberley",
      "state": "England",
      "country": "United Kingdom",
      "woeid": "12518042",
      "tz": "Europe/London"
    },
    {
      "code": "BBU",
      "lat": "44.4966",
      "lon": "26.087",
      "name": "Aeroportul National Bucuresti-Baneasa",
      "city": "Bucharest",
      "state": "Bucuresti",
      "country": "Romania",
      "woeid": "23388350",
      "tz": "Europe/Bucharest"
    },
    {
      "code": "BCN",
      "lat": "41.3006",
      "lon": "2.07976",
      "name": "Barcelona International Airport",
      "city": "El Prat de Llobregat",
      "state": "Catalonia",
      "country": "Spain",
      "woeid": "22411879",
      "tz": "Europe/Madrid"
    },
    {
      "code": "BDS",
      "lat": "40.6626",
      "lon": "17.9426",
      "name": "Casale Airport",
      "city": "Brindisi",
      "state": "Puglia",
      "country": "Italy",
      "woeid": "12513811",
      "tz": "Europe/Rome"
    },
    {
      "code": "BEB",
      "lat": "57.4756",
      "lon": "-7.37041",
      "name": "Benbecula Airport",
      "city": "Balivanich",
      "state": "Scotland",
      "country": "United Kingdom",
      "woeid": "22453706",
      "tz": "Europe/London"
    },
    {
      "code": "BEG",
      "lat": "44.8192",
      "lon": "20.3122",
      "name": "Surcin Airport",
      "city": "Surcin",
      "state": "Beograd",
      "country": "Serbia",
      "woeid": "12517583",
      "tz": "Europe/Belgrade"
    },
    {
      "code": "BFE",
      "lat": "52",
      "lon": "8.5",
      "name": "Bielefeld",
      "city": "Bielefeld",
      "state": "North-Rhine-Westphalia",
      "country": "Germany",
      "woeid": "20066058",
      "tz": "Europe/Berlin"
    },
    {
      "code": "BFS",
      "lat": "54.6542",
      "lon": "-6.225",
      "name": "Aldergrove Airport",
      "city": "Crumlin",
      "state": "Northern Ireland",
      "country": "United Kingdom",
      "woeid": "12518031",
      "tz": "Europe/London"
    },
    {
      "code": "BGY",
      "lat": "45.6664",
      "lon": "9.699",
      "name": "Orio Al Serio Airport",
      "city": "Grassobbio",
      "state": "Lombardy",
      "country": "Italy",
      "woeid": "22309691",
      "tz": "Europe/Rome"
    },
    {
      "code": "BHD",
      "lat": "54.6151",
      "lon": "-5.87096",
      "name": "George Best Belfast City Airport",
      "city": "Belfast",
      "state": "Northern Ireland",
      "country": "United Kingdom",
      "woeid": "23387943",
      "tz": "Europe/London"
    },
    {
      "code": "BHX",
      "lat": "52.4531",
      "lon": "-1.73847",
      "name": "Birmingham International Airport",
      "city": "Birmingham",
      "state": "England",
      "country": "United Kingdom",
      "woeid": "22454274",
      "tz": "Europe/London"
    },
    {
      "code": "BIA",
      "lat": "42.5497",
      "lon": "9.48341",
      "name": "Poretta Airport",
      "city": "Borgo",
      "state": "Corsica",
      "country": "France",
      "woeid": "12512955",
      "tz": "Europe/Paris"
    },
    {
      "code": "BIO",
      "lat": "43.3025",
      "lon": "-2.91112",
      "name": "Bilbao Airport",
      "city": "Loiu",
      "state": "Basque Country",
      "country": "Spain",
      "woeid": "12517541",
      "tz": "Europe/Madrid"
    },
    {
      "code": "BJF",
      "lat": "70.6031",
      "lon": "29.6948",
      "name": "Batsfjord Airport",
      "city": "Baasfjord",
      "state": "Finnmark Fylke",
      "country": "Norway",
      "woeid": "12523932",
      "tz": "Europe/Oslo"
    },
    {
      "code": "BJV",
      "lat": "37.0413",
      "lon": "27.4362",
      "name": "Milas Airport",
      "city": "Bodrum",
      "state": "Mugla",
      "country": "Turkey",
      "woeid": "12523053",
      "tz": "Europe/Istanbul"
    },
    {
      "code": "BJZ",
      "lat": "38.8939",
      "lon": "-6.81921",
      "name": "Talavera la Real Airport",
      "city": "Badajoz",
      "state": "Extremadura",
      "country": "Spain",
      "woeid": "12517575",
      "tz": "Europe/Madrid"
    },
    {
      "code": "BKA",
      "lat": "55.5516",
      "lon": "37.9763",
      "name": "Bykovo Airport",
      "city": "Lyubertsy",
      "state": "Moskovskaya Oblast",
      "country": "Russia",
      "woeid": "12515878",
      "tz": "Europe/Moscow"
    },
    {
      "code": "BLK",
      "lat": "53.7756",
      "lon": "-3.04118",
      "name": "Blackpool Airport",
      "city": "Blackpool",
      "state": "England",
      "country": "United Kingdom",
      "woeid": "22454971",
      "tz": "Europe/London"
    },
    {
      "code": "BLL",
      "lat": "55.742",
      "lon": "9.15354",
      "name": "Billund Airport",
      "city": "Billund",
      "state": "Syddanmark",
      "country": "Denmark",
      "woeid": "12512589",
      "tz": "Europe/Copenhagen"
    },
    {
      "code": "BLQ",
      "lat": "44.5345",
      "lon": "11.2903",
      "name": "Bologna Airport",
      "city": "Bologna",
      "state": "Emilia Romagna",
      "country": "Italy",
      "woeid": "12513806",
      "tz": "Europe/Rome"
    },
    {
      "code": "BMA",
      "lat": "59.3562",
      "lon": "17.9378",
      "name": "Bromma Airport",
      "city": "Bromma",
      "state": "Stockholm",
      "country": "Sweden",
      "woeid": "12517616",
      "tz": "Europe/Stockholm"
    },
    {
      "code": "BNJ",
      "lat": "50.7667",
      "lon": "7.16449",
      "name": "Hangelar",
      "city": "Bonn",
      "state": "North-Rhine-Westphalia",
      "country": "Germany",
      "woeid": "695997",
      "tz": "Europe/Berlin"
    },
    {
      "code": "BNN",
      "lat": "65.462",
      "lon": "12.2161",
      "name": "Bronnoy Airport",
      "city": "Bronnoysund",
      "state": "Nordland Fylke",
      "country": "Norway",
      "woeid": "12523928",
      "tz": "Europe/Oslo"
    },
    {
      "code": "BRE",
      "lat": "53.0523",
      "lon": "8.78533",
      "name": "Bremen Airport",
      "city": "Bremen",
      "state": "Bremen",
      "country": "Germany",
      "woeid": "22177393",
      "tz": "Europe/Berlin"
    },
    {
      "code": "BRF",
      "lat": "54.3139",
      "lon": "-2.23218",
      "name": "United Kingdom",
      "city": "Bradford",
      "state": null,
      "country": "United Kingdom",
      "woeid": "23424975"
    },
    {
      "code": "BRI",
      "lat": "41.1376",
      "lon": "16.7674",
      "name": "Palese Macchie Airport",
      "city": "Bari",
      "state": "Puglia",
      "country": "Italy",
      "woeid": "12513843",
      "tz": "Europe/Rome"
    },
    {
      "code": "BVA",
      "lat": "49.4565",
      "lon": "2.11552",
      "name": "Beauvais-Tille Airport",
      "city": "Beauvais",
      "state": "Picardie",
      "country": "France",
      "woeid": "22904235",
      "tz": "Europe/Paris"
    },
    {
      "code": "BZR",
      "lat": "43.3229",
      "lon": "3.35466",
      "name": "Vias Airport",
      "city": "Villeneuve",
      "state": "Languedoc-Roussillon",
      "country": "France",
      "woeid": "12512985",
      "tz": "Europe/Paris"
    },
    {
      "code": "CPH",
      "lat": "55.6205",
      "lon": "12.6495",
      "name": "Copenhagen Airport",
      "city": "Kastrup",
      "state": "Hovedstaden",
      "country": "Denmark",
      "woeid": "22851127",
      "tz": "Europe/Copenhagen"
    },
    {
      "code": "CTA",
      "lat": "37.4696",
      "lon": "15.0672",
      "name": "Catania Fontanarossa Airport",
      "city": "Catania",
      "state": "Sicily",
      "country": "Italy",
      "woeid": "22307044",
      "tz": "Europe/Rome"
    },
    {
      "code": "EAS",
      "lat": "43.3557",
      "lon": "-1.79208",
      "name": "San Sebastian Airport",
      "city": "Hondarribia",
      "state": "Basque Country",
      "country": "Spain",
      "woeid": "12517567",
      "tz": "Europe/Madrid"
    },
    {
      "code": "GYD",
      "lat": "40.3781",
      "lon": "49.8028",
      "name": "Azerbaijan",
      "city": "Baku",
      "state": "Baki",
      "country": "Azerbaijan",
      "woeid": "23424741",
      "tz": "Asia/Baku"
    },
    {
      "code": "KVA",
      "lat": "40.915",
      "lon": "24.6203",
      "name": "Chrisoupolis Airport",
      "city": "Khrysoupolis",
      "state": "Anatoliki Makedonia",
      "country": "Greece",
      "woeid": "12513288",
      "tz": "Europe/Athens"
    },
    {
      "code": "NAP",
      "lat": "40.8837",
      "lon": "14.2815",
      "name": "Naples International Airport",
      "city": "Naples",
      "state": "Campania",
      "country": "Italy",
      "woeid": "12513810",
      "tz": "Europe/Rome"
    },
    {
      "code": "RYG",
      "lat": "59.3789",
      "lon": "10.7856",
      "name": "Moss Airport",
      "city": "Rygge",
      "state": "",
      "country": "Norway",
      "woeid": "863279",
      "tz": "Europe/Oslo"
    },
    {
      "code": "SAW",
      "lat": "40.9928",
      "lon": "29.034",
      "name": "Istanbul Sabiha Gokcen Airport",
      "city": "Umraniye",
      "state": "Istanbul",
      "country": "Turkey",
      "woeid": "23416958",
      "tz": "Europe/Istanbul"
    }
  ],
  "flights": [
    {
      "dept_from": "SAW",
      "dept_city": "Istanbul",
      "arr_to": "RYG",
      "arr_city": "Rygge",
      "departure_date": "2023-07-05T19:55:00.000+05:30",
      "arrival_date": "2023-07-06T12:50:00.000+02:00",
      "duration": "8h 20m",
      "price": 500
    },
    {
      "dept_from": "NAP",
      "dept_city": "Naples",
      "arr_to": "CTA",
      "arr_city": "Catania",
      "departure_date": "2023-07-05T19:55:00.000+05:30",
      "arrival_date": "2023-07-05T20:35:00.000+05:30",
      "duration": "0h 40m",
      "price": 50
    },
    {
      "dept_from": "SAW",
      "dept_city": "Istanbul",
      "arr_to": "ADB",
      "arr_city": "Izmir",
      "departure_date": "2023-07-05T19:55:00.000+05:30",
      "arrival_date": "2023-07-06T20:55:00.000+02:00",
      "duration": "1h 00m",
      "price": 30
    },
    {
      "dept_from": "SAW",
      "dept_city": "Istanbul",
      "arr_to": "RYG",
      "arr_city": "Rygge",
      "departure_date": "2023-07-05T19:55:00.000+05:30",
      "arrival_date": "2023-07-06T12:50:00.000+02:00",
      "duration": "8h 20m",
      "price": 500
    },
    {
      "dept_from": "SAW",
      "dept_city": "Istanbul",
      "arr_to": "RYG",
      "arr_city": "Rygge",
      "departure_date": "2023-07-05T19:55:00.000+05:30",
      "arrival_date": "2023-07-06T12:50:00.000+02:00",
      "duration": "8h 20m",
      "price": 500
    },
    {
      "dept_from": "SAW",
      "dept_city": "Istanbul",
      "arr_to": "RYG",
      "arr_city": "Rygge",
      "departure_date": "2023-07-05T19:55:00.000+05:30",
      "arrival_date": "2023-07-06T12:50:00.000+02:00",
      "duration": "8h 20m",
      "price": 500
    },
    {
      "dept_from": "SAW",
      "dept_city": "Istanbul",
      "arr_to": "RYG",
      "arr_city": "Rygge",
      "departure_date": "2023-07-07T19:55:00.000+05:30",
      "arrival_date": "2023-07-08T12:50:00.000+02:00",
      "duration": "8h 20m",
      "price": 400
    }
  ]
}
